<?xml version="1.0" encoding="UTF-8"?>
<kml xmlns="http://www.opengis.net/kml/2.2" xmlns:gx="http://www.google.com/kml/ext/2.2" xmlns:kml="http://www.opengis.net/kml/2.2" xmlns:atom="http://www.w3.org/2005/Atom">
<Document>
	<name>Utah County Names</name>
    <description>Utah County Names</description>
		<StyleMap id="m_ylw-pushpin">
			<Pair>
				<key>normal</key>
				<styleUrl>#s_ylw-pushpin</styleUrl>
			</Pair>
			<Pair>
				<key>highlight</key>
				<styleUrl>#s_ylw-pushpin_hl</styleUrl>
			</Pair>
		</StyleMap>
		<Style id="s_ylw-pushpin">
			<IconStyle>
				<scale>1.2</scale>
				<Icon>
					<href>http://maps.google.com/mapfiles/kml/shapes/placemark_circle.png</href>
				</Icon>
			</IconStyle>
			<ListStyle>
			</ListStyle>
		</Style>
		<Style id="s_ylw-pushpin_hl">
			<IconStyle>
				<scale>1.2</scale>
				<Icon>
					<href>http://maps.google.com/mapfiles/kml/shapes/placemark_circle_highlight.png</href>
				</Icon>
			</IconStyle>
			<ListStyle>
			</ListStyle>
		</Style>
		<Placemark>
			<name>UT_County_Beaver</name>
			<styleUrl>#m_ylw-pushpin</styleUrl>
			<ExtendedData>
				<SchemaData schemaUrl="#County_Names">
					<SimpleData name="State">Utah</SimpleData>
					<SimpleData name="County">Beaver County</SimpleData>
				</SchemaData>
			</ExtendedData>
			<Point>
				<coordinates>-113.2355081212,38.3569480130266,0</coordinates>
			</Point>
		</Placemark>
		<Placemark>
			<name>UT_County_Wayne</name>
			<styleUrl>#m_ylw-pushpin</styleUrl>
			<ExtendedData>
				<SchemaData schemaUrl="#County_Names">
					<SimpleData name="State">Utah</SimpleData>
					<SimpleData name="County">Wayne County</SimpleData>
				</SchemaData>
			</ExtendedData>
			<Point>
				<coordinates>-110.903845061561,38.3243780995568,0</coordinates>
			</Point>
		</Placemark>
		<Placemark>
			<name>UT_County_Duchesne</name>
			<styleUrl>#m_ylw-pushpin</styleUrl>
			<ExtendedData>
				<SchemaData schemaUrl="#County_Names">
					<SimpleData name="State">Utah</SimpleData>
					<SimpleData name="County">Duchesne County</SimpleData>
				</SchemaData>
			</ExtendedData>
			<Point>
				<coordinates>-110.425172488313,40.2982648208888,0</coordinates>
			</Point>
		</Placemark>
		<Placemark>
			<name>UT_County_Rich</name>
			<styleUrl>#m_ylw-pushpin</styleUrl>
			<ExtendedData>
				<SchemaData schemaUrl="#County_Names">
					<SimpleData name="State">Utah</SimpleData>
					<SimpleData name="County">Rich County</SimpleData>
				</SchemaData>
			</ExtendedData>
			<Point>
				<coordinates>-111.24442769298,41.6322754359708,0</coordinates>
			</Point>
		</Placemark>
		<Placemark>
			<name>UT_County_Sanpete</name>
			<styleUrl>#m_ylw-pushpin</styleUrl>
			<ExtendedData>
				<SchemaData schemaUrl="#County_Names">
					<SimpleData name="State">Utah</SimpleData>
					<SimpleData name="County">Sanpete County</SimpleData>
				</SchemaData>
			</ExtendedData>
			<Point>
				<coordinates>-111.576348830422,39.3738804245127,0</coordinates>
			</Point>
		</Placemark>
		<Placemark>
			<name>UT_County_Salt_Lake</name>
			<styleUrl>#m_ylw-pushpin</styleUrl>
			<ExtendedData>
				<SchemaData schemaUrl="#County_Names">
					<SimpleData name="State">Utah</SimpleData>
					<SimpleData name="County">Salt Lake County</SimpleData>
				</SchemaData>
			</ExtendedData>
			<Point>
				<coordinates>-111.923570281076,40.667313230075,0</coordinates>
			</Point>
		</Placemark>
		<Placemark>
			<name>UT_County_Grand</name>
			<styleUrl>#m_ylw-pushpin</styleUrl>
			<ExtendedData>
				<SchemaData schemaUrl="#County_Names">
					<SimpleData name="State">Utah</SimpleData>
					<SimpleData name="County">Grand County</SimpleData>
				</SchemaData>
			</ExtendedData>
			<Point>
				<coordinates>-109.569821885115,38.9819613002499,0</coordinates>
			</Point>
		</Placemark>
		<Placemark>
			<name>UT_County_Piute</name>
			<styleUrl>#m_ylw-pushpin</styleUrl>
			<ExtendedData>
				<SchemaData schemaUrl="#County_Names">
					<SimpleData name="State">Utah</SimpleData>
					<SimpleData name="County">Piute County</SimpleData>
				</SchemaData>
			</ExtendedData>
			<Point>
				<coordinates>-112.127330819918,38.3365878092664,0</coordinates>
			</Point>
		</Placemark>
		<Placemark>
			<name>UT_County_Utah</name>
			<styleUrl>#m_ylw-pushpin</styleUrl>
			<ExtendedData>
				<SchemaData schemaUrl="#County_Names">
					<SimpleData name="State">Utah</SimpleData>
					<SimpleData name="County">Utah County</SimpleData>
				</SchemaData>
			</ExtendedData>
			<Point>
				<coordinates>-111.670239006345,40.1198967043149,0</coordinates>
			</Point>
		</Placemark>
		<Placemark>
			<name>UT_County_Weber</name>
			<styleUrl>#m_ylw-pushpin</styleUrl>
			<ExtendedData>
				<SchemaData schemaUrl="#County_Names">
					<SimpleData name="State">Utah</SimpleData>
					<SimpleData name="County">Weber County</SimpleData>
				</SchemaData>
			</ExtendedData>
			<Point>
				<coordinates>-111.913341326639,41.2698405836113,0</coordinates>
			</Point>
		</Placemark>
		<Placemark>
			<name>UT_County_Carbon</name>
			<styleUrl>#m_ylw-pushpin</styleUrl>
			<ExtendedData>
				<SchemaData schemaUrl="#County_Names">
					<SimpleData name="State">Utah</SimpleData>
					<SimpleData name="County">Carbon County</SimpleData>
				</SchemaData>
			</ExtendedData>
			<Point>
				<coordinates>-110.588712952278,39.6481343759811,0</coordinates>
			</Point>
		</Placemark>
		<Placemark>
			<name>UT_County_Wasatch</name>
			<styleUrl>#m_ylw-pushpin</styleUrl>
			<ExtendedData>
				<SchemaData schemaUrl="#County_Names">
					<SimpleData name="State">Utah</SimpleData>
					<SimpleData name="County">Wasatch County</SimpleData>
				</SchemaData>
			</ExtendedData>
			<Point>
				<coordinates>-111.168190305933,40.3307985274464,0</coordinates>
			</Point>
		</Placemark>
		<Placemark>
			<name>UT_County_Kane</name>
			<styleUrl>#m_ylw-pushpin</styleUrl>
			<ExtendedData>
				<SchemaData schemaUrl="#County_Names">
					<SimpleData name="State">Utah</SimpleData>
					<SimpleData name="County">Kane County</SimpleData>
				</SchemaData>
			</ExtendedData>
			<Point>
				<coordinates>-111.887908507333,37.2850804249509,0</coordinates>
			</Point>
		</Placemark>
		<Placemark>
			<name>UT_County_Uintah</name>
			<styleUrl>#m_ylw-pushpin</styleUrl>
			<ExtendedData>
				<SchemaData schemaUrl="#County_Names">
					<SimpleData name="State">Utah</SimpleData>
					<SimpleData name="County">Uintah County</SimpleData>
				</SchemaData>
			</ExtendedData>
			<Point>
				<coordinates>-109.518624027952,40.1248276665551,0</coordinates>
			</Point>
		</Placemark>
		<Placemark>
			<name>UT_County_Tooele</name>
			<styleUrl>#m_ylw-pushpin</styleUrl>
			<ExtendedData>
				<SchemaData schemaUrl="#County_Names">
					<SimpleData name="State">Utah</SimpleData>
					<SimpleData name="County">Tooele County</SimpleData>
				</SchemaData>
			</ExtendedData>
			<Point>
				<coordinates>-113.131074698053,40.4487470908967,0</coordinates>
			</Point>
		</Placemark>
		<Placemark>
			<name>UT_County_Cache</name>
			<styleUrl>#m_ylw-pushpin</styleUrl>
			<ExtendedData>
				<SchemaData schemaUrl="#County_Names">
					<SimpleData name="State">Utah</SimpleData>
					<SimpleData name="County">Cache County</SimpleData>
				</SchemaData>
			</ExtendedData>
			<Point>
				<coordinates>-111.743620446573,41.7224223575063,0</coordinates>
			</Point>
		</Placemark>
		<Placemark>
			<name>UT_County_Daggett</name>
			<styleUrl>#m_ylw-pushpin</styleUrl>
			<ExtendedData>
				<SchemaData schemaUrl="#County_Names">
					<SimpleData name="State">Utah</SimpleData>
					<SimpleData name="County">Daggett County</SimpleData>
				</SchemaData>
			</ExtendedData>
			<Point>
				<coordinates>-109.507677356406,40.8873369237243,0</coordinates>
			</Point>
		</Placemark>
		<Placemark>
			<name>UT_County_Garfield</name>
			<styleUrl>#m_ylw-pushpin</styleUrl>
			<ExtendedData>
				<SchemaData schemaUrl="#County_Names">
					<SimpleData name="State">Utah</SimpleData>
					<SimpleData name="County">Garfield County</SimpleData>
				</SchemaData>
			</ExtendedData>
			<Point>
				<coordinates>-111.443224508285,37.8549314528801,0</coordinates>
			</Point>
		</Placemark>
		<Placemark>
			<name>UT_County_Juab</name>
			<styleUrl>#m_ylw-pushpin</styleUrl>
			<ExtendedData>
				<SchemaData schemaUrl="#County_Names">
					<SimpleData name="State">Utah</SimpleData>
					<SimpleData name="County">Juab County</SimpleData>
				</SchemaData>
			</ExtendedData>
			<Point>
				<coordinates>-112.784823166097,39.7027232773616,0</coordinates>
			</Point>
		</Placemark>
		<Placemark>
			<name>UT_County_Sevier</name>
			<styleUrl>#m_ylw-pushpin</styleUrl>
			<ExtendedData>
				<SchemaData schemaUrl="#County_Names">
					<SimpleData name="State">Utah</SimpleData>
					<SimpleData name="County">Sevier County</SimpleData>
				</SchemaData>
			</ExtendedData>
			<Point>
				<coordinates>-111.804577737419,38.747699126579,0</coordinates>
			</Point>
		</Placemark>
		<Placemark>
			<name>UT_County_Iron</name>
			<styleUrl>#m_ylw-pushpin</styleUrl>
			<ExtendedData>
				<SchemaData schemaUrl="#County_Names">
					<SimpleData name="State">Utah</SimpleData>
					<SimpleData name="County">Iron County</SimpleData>
				</SchemaData>
			</ExtendedData>
			<Point>
				<coordinates>-113.289495043595,37.8591747182223,0</coordinates>
			</Point>
		</Placemark>
		<Placemark>
			<name>UT_County_Washington</name>
			<styleUrl>#m_ylw-pushpin</styleUrl>
			<ExtendedData>
				<SchemaData schemaUrl="#County_Names">
					<SimpleData name="State">Utah</SimpleData>
					<SimpleData name="County">Washington County</SimpleData>
				</SchemaData>
			</ExtendedData>
			<Point>
				<coordinates>-113.504785202489,37.2804032067385,0</coordinates>
			</Point>
		</Placemark>
		<Placemark>
			<name>UT_County_Emery</name>
			<styleUrl>#m_ylw-pushpin</styleUrl>
			<ExtendedData>
				<SchemaData schemaUrl="#County_Names">
					<SimpleData name="State">Utah</SimpleData>
					<SimpleData name="County">Emery County</SimpleData>
				</SchemaData>
			</ExtendedData>
			<Point>
				<coordinates>-110.700595427987,38.9967639906683,0</coordinates>
			</Point>
		</Placemark>
		<Placemark>
			<name>UT_County_Millard</name>
			<styleUrl>#m_ylw-pushpin</styleUrl>
			<ExtendedData>
				<SchemaData schemaUrl="#County_Names">
					<SimpleData name="State">Utah</SimpleData>
					<SimpleData name="County">Millard County</SimpleData>
				</SchemaData>
			</ExtendedData>
			<Point>
				<coordinates>-113.10077888526,39.0732615605453,0</coordinates>
			</Point>
		</Placemark>
		<Placemark>
			<name>UT_County_San_Juan</name>
			<styleUrl>#m_ylw-pushpin</styleUrl>
			<ExtendedData>
				<SchemaData schemaUrl="#County_Names">
					<SimpleData name="State">Utah</SimpleData>
					<SimpleData name="County">San Juan County</SimpleData>
				</SchemaData>
			</ExtendedData>
			<Point>
				<coordinates>-109.804612805106,37.6260118081765,0</coordinates>
			</Point>
		</Placemark>
		<Placemark>
			<name>UT_County_Summit</name>
			<styleUrl>#m_ylw-pushpin</styleUrl>
			<ExtendedData>
				<SchemaData schemaUrl="#County_Names">
					<SimpleData name="State">Utah</SimpleData>
					<SimpleData name="County">Summit County</SimpleData>
				</SchemaData>
			</ExtendedData>
			<Point>
				<coordinates>-110.955799738502,40.8682733553539,0</coordinates>
			</Point>
		</Placemark>
		<Placemark>
			<name>UT_County_Box_Elder</name>
			<styleUrl>#m_ylw-pushpin</styleUrl>
			<ExtendedData>
				<SchemaData schemaUrl="#County_Names">
					<SimpleData name="State">Utah</SimpleData>
					<SimpleData name="County">Box Elder County</SimpleData>
				</SchemaData>
			</ExtendedData>
			<Point>
				<coordinates>-113.082151638344,41.5210107295784,0</coordinates>
			</Point>
		</Placemark>
		<Placemark>
			<name>UT_County_Morgan</name>
			<styleUrl>#m_ylw-pushpin</styleUrl>
			<ExtendedData>
				<SchemaData schemaUrl="#County_Names">
					<SimpleData name="State">Utah</SimpleData>
					<SimpleData name="County">Morgan County</SimpleData>
				</SchemaData>
			</ExtendedData>
			<Point>
				<coordinates>-111.573063571889,41.0893796805625,0</coordinates>
			</Point>
		</Placemark>
		<Placemark>
			<name>UT_County_Davis</name>
			<styleUrl>#m_ylw-pushpin</styleUrl>
			<ExtendedData>
				<SchemaData schemaUrl="#County_Names">
					<SimpleData name="State">Utah</SimpleData>
					<SimpleData name="County">Davis County</SimpleData>
				</SchemaData>
			</ExtendedData>
			<Point>
				<coordinates>-112.111331465584,40.9900167868322,0</coordinates>
			</Point>
		</Placemark>
</Document>
</kml>
